City_ID,City,Lat,Lng,Max Temp,Humidity,Cloudiness,Wind Speed,Country,Date
0,orsa,54.5153,30.4053,281.41,60,100,4.67,BY,1712875413
1,tiksi,71.6872,128.8694,247.47,94,23,5.43,RU,1712875414
2,port-aux-francais,-49.35,70.2167,279.15,85,100,2.46,TF,1712875414
3,ciudad lazaro cardenas,17.9583,-102.2,300.45,63,0,3.69,MX,1712875416
4,yellowknife,62.456,-114.3525,276.44,60,40,4.63,CA,1712875416
5,bentiu,9.2333,29.8333,303.31,13,85,2.22,SS,1712875417
6,bethel,41.3712,-73.414,287.95,89,100,3.09,US,1712875417
7,hamilton,39.1834,-84.5333,290.2,89,100,8.94,US,1712875355
8,port douglas,-16.4833,145.4667,298.44,65,50,3.66,AU,1712875181
9,hawaiian paradise park,19.5933,-154.9731,296.5,97,100,2.06,US,1712875419
10,ust-nera,64.5667,143.2,266.06,92,89,2.39,RU,1712875420
11,broken hill,-31.95,141.4333,287.01,55,24,4.79,AU,1712875421
12,jayapura,-2.5333,140.7,298.81,84,85,0.61,ID,1712875421
13,bredasdorp,-34.5322,20.0403,286.67,72,4,3.79,ZA,1712875422
14,port alfred,-33.5906,26.891,287.69,83,24,2.24,ZA,1712875422
15,yaren,-0.5472,166.916,301.4,81,100,4.2,NR,1712875423
16,shubarshi,48.5872,57.1869,280.67,69,55,1.33,KZ,1712875280
17,mogadishu,2.0371,45.3438,302.14,76,34,4.89,SO,1712875424
18,iqaluit,63.7506,-68.5145,271.0,68,100,2.57,CA,1712875425
19,petropavlovsk-kamchatsky,53.0452,158.6483,276.48,38,0,5.0,RU,1712875425
20,puerto ayora,-0.7393,-90.3518,302.13,97,57,3.58,EC,1712875426
21,waitangi,-43.9535,-176.5597,290.83,92,100,4.92,NZ,1712875427
22,lensk,60.7253,114.9278,256.38,92,97,1.33,RU,1712875427
23,grytviken,-54.2811,-36.5092,271.56,69,12,4.33,GS,1712875428
24,fort bragg,35.139,-79.006,294.93,90,100,6.17,US,1712875428
25,bamboo flat,11.7,92.7167,300.23,79,7,2.71,IN,1712875429
26,tazovsky,67.4667,78.7,251.12,94,63,6.73,RU,1712875430
27,ribeira grande,38.5167,-28.7,289.14,94,97,1.79,PT,1712875430
28,adamstown,-25.066,-130.1015,294.21,54,4,5.59,PN,1712875431
29,arraial do cabo,-22.9661,-42.0278,298.56,84,96,1.73,BR,1712875431
30,qui nhon,13.7667,109.2333,298.37,86,99,2.04,VN,1712875432
31,west island,-12.1568,96.8225,299.14,89,59,2.57,CC,1712875433
32,kirando,-7.4167,30.6,296.14,85,99,1.92,TZ,1712875433
33,blackmans bay,-43.0167,147.3167,285.11,81,81,0.89,AU,1712875435
34,la sarre,48.8002,-79.1996,282.96,77,100,4.32,CA,1712875435
35,shitanjing,39.2342,106.3439,284.86,31,15,0.59,CN,1712875436
36,whitehorse,60.7161,-135.0538,280.58,33,20,6.17,CA,1712875436
37,alice springs,-23.7,133.8833,291.05,39,4,2.06,AU,1712875437
38,albany,42.6001,-73.9662,288.2,81,100,1.79,US,1712875384
39,salalah,17.0151,54.0924,301.2,69,40,2.57,OM,1712875438
40,edinburgh of the seven seas,-37.0676,-12.3116,291.59,94,65,7.01,SH,1712875439
41,lebu,-37.6167,-73.65,284.75,89,1,2.37,CL,1712875439
42,puerto natales,-51.7236,-72.4875,276.45,91,36,2.44,CL,1712875440
43,bilibino,68.0546,166.4372,261.15,81,100,1.41,RU,1712875440
44,kerikeri,-35.2268,173.9474,294.77,85,48,3.12,NZ,1712875441
45,ilulissat,69.2167,-51.1,267.16,79,100,1.54,GL,1712875442
46,guajara mirim,-10.7828,-65.3394,297.41,98,100,1.77,BR,1712875442
47,invercargill,-46.4,168.35,283.16,82,99,2.24,NZ,1712875443
48,prado,-17.3411,-39.2208,298.98,84,16,2.91,BR,1712875444
49,geneina,13.45,22.45,299.24,11,19,5.14,SD,1712875444
50,port elizabeth,-33.918,25.5701,288.2,79,20,4.63,ZA,1712875445
51,ushuaia,-54.8,-68.3,280.96,66,0,12.35,AR,1712875354
52,madalena,41.2162,-8.3345,290.24,76,100,1.9,PT,1712875446
53,manavalakurichi,8.1333,77.3,300.9,76,91,4.67,IN,1712875447
54,zhezqazghan,47.7833,67.7667,274.92,69,1,5.64,KZ,1712875277
55,fairbanks,64.8378,-147.7164,280.42,43,75,4.12,US,1712875448
56,iskateley,67.6803,53.1512,274.83,100,100,7.6,RU,1712875449
57,margaret river,-33.95,115.0667,284.8,88,5,5.37,AU,1712875449
58,juankoski,63.0667,28.35,276.62,98,100,2.04,FI,1712875450
59,georgetown,5.4112,100.3354,300.9,83,20,1.03,MY,1712875162
60,talnakh,69.4865,88.3972,245.5,97,95,3.91,RU,1712875451
61,bosaso,11.2842,49.1816,300.98,71,29,1.32,SO,1712875452
62,dubbo,-32.25,148.6167,287.22,82,0,3.6,AU,1712875438
63,pisco,-13.7,-76.2167,299.18,65,0,6.17,PE,1712875447
64,gisborne,-38.6533,178.0042,294.29,71,100,5.93,NZ,1712875288
65,wailua homesteads,22.0669,-159.378,299.39,84,100,2.06,US,1712875454
66,saint-pierre,-21.3393,55.4781,298.97,73,0,2.57,RE,1712875455
67,nadvoitsy,63.8667,34.3167,275.93,84,86,6.17,RU,1712875455
68,susuman,62.7833,148.1667,260.92,92,99,1.34,RU,1712875457
69,uturoa,-16.7333,-151.4333,302.47,73,46,7.9,PF,1712875253
70,carloforte,39.145,8.3058,285.84,72,48,1.93,IT,1712875458
71,borova,50.1763,30.1043,287.23,71,19,2.98,UA,1712875459
72,kidal,18.4411,1.4078,303.93,10,87,6.36,ML,1712875280
73,la passe,45.5549,-0.8967,286.49,94,48,3.2,FR,1712875460
74,kangding,30.0513,101.9603,281.45,65,74,2.13,CN,1712875460
75,timbuktu,16.7735,-3.0074,304.79,11,87,5.89,ML,1712875461
76,paragominas,-2.9667,-47.4833,297.83,96,89,1.23,BR,1712875341
77,bengkulu,-3.8004,102.2655,297.75,94,100,1.61,ID,1712875451
78,kodiak,57.79,-152.4072,273.88,93,100,2.06,US,1712875463
79,faya-largeau,17.9257,19.1043,299.77,11,78,7.27,TD,1712875464
80,atafu village,-8.5421,-172.5159,302.71,76,42,3.69,TK,1712875462
81,levanger,63.7464,11.2996,282.18,87,100,8.54,NO,1712875465
82,st. john's,47.5649,-52.7093,276.42,78,0,5.14,CA,1712875199
83,werota,11.9167,37.7,296.9,28,63,1.48,ET,1712875467
84,nemuro,43.3236,145.575,278.04,95,100,7.13,JP,1712875467
85,chazuta,-6.5742,-76.1367,301.62,94,85,1.39,PE,1712875468
86,san julian,21.0167,-102.1667,301.31,12,100,5.5,MX,1712875469
87,tralee,52.2704,-9.7026,284.68,98,100,2.09,IE,1712875397
88,hithadhoo,-0.6,73.0833,301.67,73,100,2.3,MV,1712875470
89,stanley,54.868,-1.6985,286.32,91,40,4.63,GB,1712875461
90,kapa'a,22.0752,-159.319,300.14,84,100,2.06,US,1712875471
91,hilo,19.7297,-155.09,296.83,99,100,2.06,US,1712875472
92,port lincoln,-34.7333,135.8667,288.08,61,100,3.67,AU,1712875472
93,castillos,-34.1667,-53.8333,289.85,58,99,3.16,UY,1712875473
94,luderitz,-26.6481,15.1594,295.11,46,0,2.09,NA,1712875474
95,nar'yan-mar,67.6713,53.087,274.88,100,100,7.6,RU,1712875474
96,hermanus,-34.4187,19.2345,286.93,73,28,7.43,ZA,1712875475
97,yemetsk,63.4721,41.7941,276.89,80,100,5.66,RU,1712875475
98,viedma,-40.8135,-62.9967,285.24,69,81,3.63,AR,1712875476
99,vorgashor,67.5833,63.95,263.6,87,100,9.85,RU,1712875477
100,belo sur tsiribihina,-19.7,44.55,297.15,82,91,2.54,MG,1712875477
101,tannum sands,-23.9504,151.3693,294.09,73,75,3.6,AU,1712875478
102,mongoumba,3.6415,18.5936,298.67,67,14,1.75,CF,1712875478
103,avarua,-21.2078,-159.775,300.18,94,75,5.66,CK,1712875458
104,woodward,36.4337,-99.3904,294.8,23,0,4.12,US,1712875480
105,puerto deseado,-47.7503,-65.8938,284.65,54,0,6.58,AR,1712875480
106,loncoche,-39.3667,-72.6333,285.3,68,0,1.62,CL,1712875481
107,tangalle,6.024,80.7911,299.59,85,94,4.6,LK,1712875482
108,badger,64.8,-147.5333,280.36,43,75,4.12,US,1712875462
109,juneau,58.3019,-134.4197,279.49,70,75,5.14,US,1712875271
110,tual,-5.6667,132.75,301.65,71,91,2.6,ID,1712875484
111,otjimbingwe,-22.35,16.1333,298.48,29,58,2.41,NA,1712875484
112,enewetak,11.3474,162.3373,300.09,79,95,9.6,MH,1712875485
113,kaa-khem,51.6833,94.7333,275.04,91,93,1.05,RU,1712875460
114,mushie,-3.0167,16.9,299.25,80,100,0.45,CD,1712875486
115,tura,25.5198,90.2201,296.43,40,80,1.5,IN,1712875486
116,huarmey,-10.0681,-78.1522,296.85,77,32,4.33,PE,1712875487
117,comodoro rivadavia,-45.8667,-67.5,285.07,62,0,1.03,AR,1712875321
118,fallon,39.4735,-118.7774,298.66,21,40,4.63,US,1712875488
119,cole harbour,44.6724,-63.4751,278.81,79,100,2.24,CA,1712875489
120,padre bernardo,-15.35,-48.5,294.53,85,42,0.92,BR,1712875489
121,serang,-6.1149,106.1502,297.59,95,87,1.41,ID,1712875490
122,lucapa,-8.4192,20.7447,293.59,95,99,0.95,AO,1712875490
123,porbandar,21.6422,69.6093,297.74,85,64,3.6,IN,1712875491
124,shunyi,40.125,116.6453,287.12,88,68,2.0,CN,1712875492
125,isafjordur,66.0755,-23.124,270.28,94,100,13.49,IS,1712875477
126,sao jose da coroa grande,-8.8978,-35.1478,300.61,80,49,3.67,BR,1712875493
127,winslow,35.0242,-110.6974,297.25,10,0,2.83,US,1712875493
128,tarawa,1.419,172.984,303.2,79,20,3.09,KI,1712875494
129,xining,36.6167,101.7667,280.36,34,88,0.33,CN,1712875494
130,bangar,16.8936,120.4243,300.78,69,43,1.81,PH,1712875496
131,longyearbyen,78.2186,15.6401,257.06,66,0,3.6,SJ,1712875461
132,puerto ayacucho,5.6639,-67.6236,305.63,45,61,1.48,VE,1712875497
133,olonkinbyen,70.9221,-8.7187,264.76,89,100,7.21,SJ,1712875465
134,keflavik,64.0049,-22.5624,278.1,87,100,7.2,IS,1712875498
135,lerwick,60.1545,-1.1494,283.15,83,100,7.56,GB,1712875499
136,vilyuchinsk,52.9306,158.4028,277.3,80,6,3.32,RU,1712875500
137,howard springs,-12.497,131.047,297.1,82,98,3.03,AU,1712875500
138,jamestown,42.097,-79.2353,290.92,96,100,3.6,US,1712875471
139,seybaplaya,19.65,-90.6667,300.85,61,69,10.22,MX,1712875501
140,punta arenas,-53.15,-70.9167,282.21,61,0,14.4,CL,1712875502
141,merlo,-32.3429,-65.014,284.82,81,100,4.24,AR,1712875436
142,forster,-32.1667,152.5167,292.2,79,18,2.05,AU,1712875503
143,khovd,48.0056,91.6419,277.53,51,98,0.79,MN,1712875504
144,nuku'alofa,-21.1333,-175.2,302.34,79,40,3.09,TO,1712875426
145,afaahiti,-17.75,-149.2833,303.08,87,89,7.39,PF,1712875474
146,anadyr,64.75,177.4833,259.43,77,0,2.68,RU,1712875506
147,ahlerstedt,53.4,9.45,286.36,96,100,4.29,DE,1712875507
148,kone,-21.0595,164.8658,296.33,87,100,0.01,NC,1712875507
149,imbituba,-28.24,-48.6703,293.94,90,100,4.49,BR,1712875508
150,itoman,26.1247,127.6694,294.87,90,40,1.54,JP,1712875508
151,thompson,55.7435,-97.8558,274.24,75,100,4.12,CA,1712875371
152,cuenca,-2.8833,-78.9833,293.22,45,75,3.6,EC,1712875237
153,quelimane,-17.8786,36.8883,296.94,85,95,3.32,MZ,1712875510
154,murudeshwara,14.0943,74.4845,299.09,77,62,1.22,IN,1712875511
155,taoudenni,22.6783,-3.9836,301.4,10,0,4.79,ML,1712875511
156,nova sintra,14.8667,-24.7167,295.81,76,2,7.38,CV,1712875477
157,portland,45.5234,-122.6762,291.27,42,75,4.02,US,1712875305
158,udachny,66.4167,112.4,247.83,99,100,2.26,RU,1712875485
159,qaqortoq,60.7167,-46.0333,266.08,89,52,1.21,GL,1712875513
160,rio gallegos,-51.6226,-69.2181,284.18,40,0,9.77,AR,1712875481
161,fale old settlement,-9.3852,-171.2468,302.73,76,22,3.87,TK,1712875515
162,abuja,9.0574,7.4898,303.23,26,58,1.12,NG,1712875515
163,shingu,33.7333,135.9833,288.29,77,97,3.71,JP,1712875516
164,constantia,44.1833,28.65,289.65,59,26,3.09,RO,1712875464
165,mili,6.0815,171.735,300.73,83,100,7.67,MH,1712875517
166,saipan,15.1355,145.701,302.54,70,40,6.69,MP,1712875518
167,college,64.8569,-147.8028,280.41,42,75,4.12,US,1712875456
168,puerto baquerizo moreno,-0.9,-89.6,300.7,78,40,5.66,EC,1712875519
169,coquimbo,-29.9533,-71.3436,287.0,94,100,2.57,CL,1712875354
170,kununurra,-15.7667,128.7333,295.14,64,44,2.57,AU,1712875520
171,antsiranana,-12.2787,49.2917,298.01,92,49,1.9,MG,1712875520
172,gleisdorf,47.1061,15.7127,284.89,87,80,1.49,AT,1712875521
173,lompoc,34.6391,-120.4579,295.16,71,0,4.63,US,1712875522
174,choibalsan,48.0667,114.5,279.63,68,81,2.59,MN,1712875522
175,san felice circeo,41.2372,13.0942,290.55,77,100,2.95,IT,1712875523
176,plettenberg bay,-34.0527,23.3716,286.35,70,15,1.68,ZA,1712875450
177,uvinza,-5.1036,30.3911,291.87,95,48,0.71,TZ,1712875524
178,itaituba,-4.2761,-55.9836,298.36,97,99,0.49,BR,1712875525
179,tafresh,34.692,50.013,279.83,76,94,3.88,IR,1712875525
180,salinopolis,-0.6136,-47.3561,299.99,88,100,3.96,BR,1712875397
181,bakanas,44.8081,76.2772,281.27,72,100,9.35,KZ,1712875279
182,papatowai,-46.5619,169.4708,281.27,81,100,2.11,NZ,1712875459
183,nelson bay,-32.7167,152.15,291.53,83,32,3.58,AU,1712875373
184,cimarron hills,38.8586,-104.6989,288.81,35,20,4.63,US,1712875403
185,east london,-33.0153,27.9116,288.75,64,40,6.74,ZA,1712875473
186,gadzhiyevo,69.2551,33.3362,272.72,91,100,11.29,RU,1712875529
187,vila franca do campo,37.7167,-25.4333,291.42,99,36,1.66,PT,1712875530
188,huanggang,23.677,116.9996,293.09,80,10,0.15,CN,1712875530
189,popondetta,-8.7537,148.2534,298.58,93,97,0.09,PG,1712875531
190,tsiombe,-25.3,45.4833,293.21,88,95,2.06,MG,1712875532
191,dul'durga,50.6761,113.5931,276.7,58,37,1.24,RU,1712875533
192,geraldton,-28.7667,114.6,292.38,72,40,3.6,AU,1712875533
193,utrik,11.2278,169.8474,299.84,74,97,9.25,MH,1712875456
194,port mathurin,-19.6833,63.4167,299.75,77,7,4.83,MU,1712875534
195,djenne,13.9061,-4.5533,306.86,27,94,2.96,ML,1712875535
196,mount isa,-20.7333,139.5,293.02,40,0,2.06,AU,1712875535
197,pontes e lacerda,-15.2261,-59.3353,297.65,95,100,0.43,BR,1712875444
198,fortuna,40.5982,-124.1573,287.96,82,100,5.66,US,1712875537
199,gondar,12.6,37.4667,292.37,25,23,2.34,ET,1712875537
200,namibe,-15.1961,12.1522,295.88,72,0,1.89,AO,1712875476
201,thunder bay,48.4001,-89.3168,283.14,87,100,5.14,CA,1712875389
202,shar,49.5886,81.0453,273.55,89,98,5.39,KZ,1712875539
203,cesme,38.3228,26.3064,290.12,78,0,9.07,TR,1712875539
204,lucheng,31.2336,117.2806,290.12,96,100,1.01,CN,1712875540
205,dhuusamarreeb,5.535,46.3861,299.83,71,98,5.63,SO,1712875541
206,souillac,-20.5167,57.5167,298.36,94,40,2.06,MU,1712875541
207,labrador city,52.9463,-66.9114,277.1,70,100,4.63,CA,1712875513
208,chipinge,-20.1883,32.6236,288.5,95,98,2.5,ZW,1712875542
209,holualoa,19.6228,-155.9522,298.46,70,100,2.57,US,1712875484
210,san patricio,28.017,-97.5169,304.07,23,0,5.36,US,1712875535
211,vega de alatorre,20.0333,-96.6333,298.55,56,0,4.73,MX,1712875399
212,lagunas,-5.2269,-75.6753,298.46,90,94,1.61,PE,1712875545
213,nuuk,64.1835,-51.7216,270.49,93,75,3.6,GL,1712875481
214,tasnad,47.4833,22.5833,285.03,87,30,1.53,RO,1712875546
215,flying fish cove,-10.4217,105.6791,299.97,89,75,3.6,CX,1712875464
216,ancud,-41.8697,-73.8203,283.72,74,0,1.82,CL,1712875547
217,tukrah,32.5341,20.5791,289.37,77,100,5.99,LY,1712875547
218,anshun,26.25,105.9333,288.99,93,95,1.7,CN,1712875548
219,tofol,5.3248,163.0078,301.03,83,100,3.09,FM,1712875549
220,remire-montjoly,4.9167,-52.2667,301.17,89,75,3.6,GF,1712875465
221,kolo,52.2002,18.6387,285.28,62,99,3.01,PL,1712875550
222,sillod,20.3,75.65,298.46,56,27,3.04,IN,1712875550
223,mary,37.0,62.5,292.83,40,90,4.35,TM,1712875551
224,apatity,67.5641,33.4031,274.07,100,96,4.57,RU,1712875551
225,taltal,-25.4,-70.4833,291.83,78,60,1.91,CL,1712875552
226,zarghun shahr,32.8473,68.4457,285.98,52,97,6.17,AF,1712875553
227,kavaratti,10.5669,72.642,302.15,67,1,1.29,IN,1712875553
228,peace river,56.2501,-117.286,286.32,28,75,3.6,CA,1712875554
229,isangel,-19.55,169.2667,300.21,94,75,1.03,VU,1712875554
230,konin,52.2234,18.2512,285.58,61,100,3.03,PL,1712875555
231,tucuma,-0.1833,-50.05,299.44,89,100,2.62,BR,1712875555
232,santa ines,-3.6667,-45.38,298.7,89,100,1.54,BR,1712875333
233,mejit,10.2753,170.8646,299.83,79,100,9.24,MH,1712875557
234,bouarfa,32.53,-1.95,284.38,31,1,8.33,MA,1712875557
235,iwon-up,40.3231,128.6553,285.34,64,0,1.1,KP,1712875558
236,tolanaro,-25.0319,46.9987,296.19,88,40,2.06,MG,1712875491
237,kolpny,52.2282,37.0368,286.02,72,100,3.64,RU,1712875561
238,weno,7.4515,151.8468,302.12,84,100,3.6,FM,1712875561
239,kingston,17.997,-76.7936,303.68,70,20,10.8,JM,1712875562
240,mermoz boabab,14.7065,-17.4758,295.46,88,0,3.09,SN,1712875562
241,aldinga beach,-35.2793,138.4604,288.05,65,2,1.24,AU,1712875563
242,aasiaat,68.7098,-52.8699,266.39,93,99,2.16,GL,1712875507
243,monroeville,40.4212,-79.7881,291.38,82,99,0.45,US,1712875564
244,palikir - national government center,6.9248,158.1611,300.62,83,100,1.54,FM,1712875565
245,naze,28.3667,129.4833,292.66,88,92,3.26,JP,1712875463
246,scarborough,54.2797,-0.4044,289.07,87,100,5.81,GB,1712875384
247,cidreira,-30.1811,-50.2056,293.5,82,100,8.03,BR,1712875567
248,lorengau,-2.0226,147.2712,300.53,79,100,1.41,PG,1712875567
249,gignac,43.652,3.5509,287.17,70,28,2.65,FR,1712875569
250,primorsk,46.7348,36.3443,288.1,61,0,1.81,UA,1712875569
251,colonia,50.9333,6.95,287.75,82,100,0.51,DE,1712875317
252,buriti alegre,-18.14,-49.0403,293.62,93,100,0.59,BR,1712875570
253,bardai,11.65,7.2333,301.54,10,94,4.14,NG,1712875506
254,sur,22.5667,59.5289,302.91,45,82,3.87,OM,1712875571
255,linxi,39.7,118.4333,289.61,71,6,3.08,CN,1712875572
256,muravlenko,63.7898,74.523,258.83,88,100,10.29,RU,1712875573
257,fauske,67.2588,15.3918,276.36,98,100,2.07,NO,1712875573
258,khandyga,62.6667,135.6,269.76,88,99,3.46,RU,1712875574
259,wajir,1.7471,40.0573,299.96,79,27,5.3,KE,1712875574
260,rehoboth,-23.3167,17.0833,291.9,36,16,2.49,NA,1712875575
261,lhokseumawe,5.1801,97.1507,297.85,89,21,2.38,ID,1712875575
262,nuevo ideal,24.8875,-105.0728,298.57,8,76,6.24,MX,1712875521
263,happy valley-goose bay,53.3168,-60.3315,285.32,22,75,5.66,CA,1712875511
264,usogorsk,63.4106,48.6872,277.96,100,100,6.98,RU,1712875577
265,ciudad valles,21.9833,-99.0167,305.67,21,16,6.29,MX,1712875578
266,polyarnyy,69.1989,33.4478,272.66,91,100,11.19,RU,1712875578
267,kisangani,0.5167,25.2,297.61,77,87,2.35,CD,1712875579
268,guerrero negro,27.9769,-114.0611,296.06,43,73,5.2,MX,1712875577
269,sisimiut,66.9395,-53.6735,267.88,90,96,1.36,GL,1712875454
270,san luis de la loma,17.2706,-100.8939,301.29,62,4,2.42,MX,1712875581
271,pasighat,28.0667,95.3333,293.66,54,100,2.25,IN,1712875582
272,mahina,-17.5065,-149.489,304.02,70,75,1.54,PF,1712875519
273,malango,-2.9627,119.9001,293.6,99,100,0.49,ID,1712875456
274,kapuskasing,49.4169,-82.4331,289.2,36,100,2.57,CA,1712875562
275,grand gaube,-20.0064,57.6608,300.03,91,9,0.89,MU,1712875584
276,tindouf,27.6711,-8.1474,301.4,10,0,2.06,DZ,1712875585
277,qamdo,31.1667,97.2333,270.56,59,28,1.88,CN,1712875489
278,oranjemund,-28.55,16.4333,298.4,30,1,6.55,NA,1712875527
279,tommot,58.9564,126.2925,274.09,98,100,2.19,RU,1712875586
280,karangampel,-6.4622,108.4519,300.53,81,100,3.34,ID,1712875587
281,mount pearl,47.5166,-52.7813,275.96,77,0,5.14,CA,1712875508
282,alofi,-19.0595,-169.9187,302.09,74,75,3.09,NU,1712875588
283,darwin,-12.4611,130.8418,297.14,81,75,3.6,AU,1712875510
284,ar rahad,12.7167,30.65,298.65,11,21,4.28,SD,1712875589
285,port shepstone,-30.7414,30.455,290.07,56,0,8.34,ZA,1712875590
286,bloemfontein,-29.1211,26.214,279.86,70,0,3.09,ZA,1712875516
287,anzio,41.4853,12.6179,290.22,82,100,2.77,IT,1712875591
288,belyy yar,53.6039,91.3903,271.09,86,40,2.0,RU,1712875591
289,urengoy,65.9667,78.3667,252.58,92,100,7.14,RU,1712875592
290,mount gambier,-37.8333,140.7667,286.79,62,100,1.61,AU,1712875593
291,rio grande,-32.035,-52.0986,293.21,60,100,6.62,BR,1712875356
292,novofedorivka,46.1713,32.3178,287.43,63,2,1.12,UA,1712875594
293,sao gabriel da cachoeira,-0.1303,-67.0892,299.05,89,75,1.31,BR,1712875594
294,lubang,13.8584,120.124,299.97,75,74,9.09,PH,1712875595
295,antonio enes,-16.2325,39.9086,298.98,87,81,5.68,MZ,1712875595
296,yelm,46.942,-122.606,288.03,54,100,3.6,US,1712875345
297,ola,59.5833,151.2833,269.34,81,38,0.57,RU,1712875597
298,antsohihy,-14.8796,47.9875,298.5,92,100,0.54,MG,1712875597
299,el salto,20.3333,-104.5,300.47,19,34,5.7,MX,1712875507
300,urangan,-25.3,152.9,295.48,80,7,3.58,AU,1712875598
301,galliano,29.4422,-90.2992,297.04,35,0,6.17,US,1712875576
302,lihue,21.9789,-159.3672,299.73,80,100,2.06,US,1712875473
303,ballina,-28.8667,153.5667,291.36,81,70,5.25,AU,1712875537
304,chernyshevskiy,63.0128,112.4714,247.42,97,20,1.2,RU,1712875486
305,lawas,13.764,121.0566,298.69,75,80,3.91,PH,1712875601
306,miles city,46.4083,-105.8406,287.69,24,0,0.83,US,1712875602
307,palmer,42.1584,-72.3287,288.07,82,100,3.09,US,1712875375
308,fort st. john,56.2499,-120.8529,283.09,37,100,3.09,CA,1712875570
309,ocean shores,46.9737,-124.1563,286.14,85,100,2.68,US,1712875423
310,green river,41.5286,-109.4662,290.48,25,7,3.58,US,1712875605
311,rikaze,29.25,88.8833,272.37,41,11,1.35,CN,1712875605
312,xingcheng,40.6167,120.7167,282.57,81,44,5.75,CN,1712875606
313,brady,31.1352,-99.3351,301.22,16,0,1.54,US,1712875606
314,orapa,-21.2833,25.3667,293.08,59,96,8.02,BW,1712875607
315,manay,7.215,126.5397,299.52,67,98,1.77,PH,1712875607
316,howrah,22.5892,88.3103,299.15,65,40,0.0,IN,1712875608
317,arkhangel'sk,64.5401,40.5433,278.22,66,40,7.0,RU,1712875609
318,cherdyn',60.403,56.4787,277.8,89,62,4.56,RU,1712875610
319,huicungo,-7.2833,-76.8,300.6,74,63,0.58,PE,1712875610
320,jinchang,38.4953,102.1739,284.46,38,73,1.51,CN,1712875611
321,vordingborg,55.008,11.9106,284.83,97,98,6.5,DK,1712875612
322,hasaki,35.7333,140.8333,289.42,79,100,5.65,JP,1712875612
323,newman,37.3138,-121.0208,303.31,46,20,0.89,US,1712875365
324,kuytun,54.3419,101.5036,273.4,96,100,1.23,RU,1712875613
325,colonia menno,-22.3667,-59.8167,294.36,95,100,4.93,PY,1712875614
326,magadan,59.5667,150.8,269.0,85,32,1.49,RU,1712875614
327,bishnah,32.6167,74.8667,292.79,38,30,2.45,IN,1712875615
328,smidovich,48.6,133.8167,282.8,73,100,2.09,RU,1712875616
329,sitka,57.0531,-135.33,280.09,65,20,6.69,US,1712875357
330,el bauga,18.262,33.9081,297.21,12,7,5.88,SD,1712875617
331,ghat,24.9647,10.1728,298.15,18,1,6.24,LY,1712875618
332,petrozavodsk,61.7849,34.3469,277.85,96,99,7.0,RU,1712875394
333,marang,5.2056,103.2059,302.1,82,68,0.89,MY,1712875619
334,hafar al-batin,28.4328,45.9708,295.47,33,0,5.14,SA,1712875337
335,medina,24.4686,39.6142,298.39,14,0,1.54,SA,1712875502
336,jamai,22.2,78.5833,295.65,60,99,1.52,IN,1712875621
337,bubaque,11.2833,-15.8333,297.33,71,0,9.54,GW,1712875621
338,xilin hot,43.9667,116.0333,284.51,41,100,2.36,CN,1712875622
339,lockwood,45.8191,-108.4149,291.16,31,40,2.57,US,1712875622
340,zouerate,22.7187,-12.4521,303.43,8,0,5.87,MR,1712875623
341,nykoping,58.753,17.0079,284.31,82,0,8.75,SE,1712875623
342,altay,47.8667,88.1167,275.04,98,100,1.9,CN,1712875624
343,carnarvon,-24.8667,113.6333,294.42,65,72,8.99,AU,1712875625
344,padang,-0.9492,100.3543,300.18,81,83,2.03,ID,1712875425
345,onokhoy,51.932,108.0747,275.01,80,98,1.15,RU,1712875626
346,la'ie,21.6477,-157.9253,300.13,80,100,2.68,US,1712875627
347,luling,29.9322,-90.3665,297.58,49,20,6.17,US,1712875627
348,minas de marcona,-15.2119,-75.1103,291.05,76,6,6.93,PE,1712875490
349,halba,34.5428,36.0797,287.03,78,0,0.41,LB,1712875629
350,baalbek,34.0058,36.2181,284.08,79,2,0.72,LB,1712875629
351,mumford,5.2618,-0.759,301.19,80,100,2.83,GH,1712875630
352,ozurgeti,41.9231,42.0059,286.66,96,87,0.87,GE,1712875631
353,mandalgovi,45.7625,106.2708,278.67,62,35,3.4,MN,1712875631
354,benguela,-12.5763,13.4055,298.6,86,100,1.81,AO,1712875632
355,ialibu,-6.2821,143.9935,288.37,98,100,1.08,PG,1712875633
356,eastham,41.8301,-69.9739,286.45,95,100,2.57,US,1712875504
357,santiago de cao,-7.9589,-79.2392,295.22,83,75,4.12,PE,1712875634
358,alto araguaia,-17.3147,-53.2153,295.51,93,100,0.3,BR,1712875634
359,ramapuram,13.1167,79.2,297.61,89,58,1.48,IN,1712875635
360,chonchi,-42.6128,-73.8092,288.71,78,0,0.56,CL,1712875574
361,brookings,44.3114,-96.7984,284.51,54,75,10.8,US,1712875636
362,agat village,13.3886,144.6585,302.24,82,20,5.66,GU,1712875637
363,saynshand,44.8824,110.1163,283.95,31,63,2.48,MN,1712875637
364,codrington,-38.2667,141.9667,288.15,62,99,3.67,AU,1712875638
365,kulhudhuffushi,6.6221,73.07,302.69,75,38,3.4,MV,1712875638
366,kapit,2.0167,112.9333,296.85,98,45,0.5,MY,1712875639
367,port saint john's,-31.6229,29.5448,288.33,65,8,5.81,ZA,1712875562
368,vernon,50.2581,-119.2691,288.87,40,100,1.54,CA,1712875505
369,klyuchi,52.2667,79.1667,270.4,71,77,3.47,RU,1712875641
370,melfort,52.8667,-104.6177,278.22,60,48,2.06,CA,1712875641
371,antalaha,-14.9003,50.2788,297.93,93,29,1.51,MG,1712875642
372,singaparna,-7.3515,108.111,296.06,99,100,0.54,ID,1712875642
373,hadibu,12.65,54.0333,300.11,78,95,2.1,YE,1712875507
374,kariong,-33.44,151.3011,291.54,68,6,0.45,AU,1712875644
375,gunjur,13.2019,-16.7339,295.19,83,0,3.6,GM,1712875644
376,quellon,-43.1167,-73.6167,282.34,73,0,2.11,CL,1712875641
377,timbiqui,2.7717,-77.6654,299.94,83,76,1.65,CO,1712875645
378,vlahita,46.35,25.5167,284.15,85,42,1.63,RO,1712875646
379,el porvenir,13.7617,-87.3458,308.78,29,50,1.68,HN,1712875647
380,taroa,8.7058,171.2275,300.57,81,92,8.11,MH,1712875647
381,nagqu,31.5,92.0,271.02,53,100,3.23,CN,1712875463
382,bangkalan,-7.0455,112.7351,298.12,89,100,2.77,ID,1712875648
383,gamba,-2.65,10.0,299.71,88,96,1.64,GA,1712875649
384,katsuura,35.1333,140.3,287.47,88,100,5.84,JP,1712875649
385,kirkwall,58.9848,-2.9587,284.18,82,20,6.17,GB,1712875650
386,korem,12.5058,39.5228,288.38,76,7,1.96,ET,1712875651
387,pelotas,-31.7719,-52.3425,293.16,64,75,3.6,BR,1712875356
388,embi,48.8264,58.1442,279.99,71,50,2.24,KZ,1712875652
389,tena,-0.9833,-77.8167,296.24,97,91,0.82,EC,1712875652
390,undurkhaan,47.3194,110.6556,279.49,54,42,3.95,MN,1712875653
391,lufkin,31.3382,-94.7291,298.1,31,0,5.66,US,1712875637
392,touros,-5.1989,-35.4608,299.95,83,99,3.11,BR,1712875654
393,puerto armuelles,8.2833,-82.8667,306.14,71,99,1.34,PA,1712875655
394,corner brook,48.9667,-57.9484,279.24,77,20,1.77,CA,1712875655
395,hotan,37.0997,79.9269,289.43,19,17,3.21,CN,1712875656
396,haiku-pauwela,20.9219,-156.3051,300.16,70,20,7.2,US,1712875475
397,bandar-e lengeh,26.5579,54.8807,300.65,56,81,3.46,IR,1712875657
398,poronaysk,49.2167,143.1167,280.81,70,42,3.23,RU,1712875504
399,bambanglipuro,-7.95,110.2833,297.9,94,100,1.26,ID,1712875659
400,amahai,-3.3333,128.9167,300.03,79,93,1.51,ID,1712875486
401,lander,42.833,-108.7307,290.6,17,0,3.09,US,1712875660
402,shumikha,55.2261,63.2961,279.28,80,99,7.45,RU,1712875660
403,sona,45.4388,10.8255,287.31,82,0,1.54,IT,1712875661
404,i-n-salah,27.1935,2.4607,295.19,24,0,6.85,DZ,1712875661
405,guarapari,-20.6667,-40.4975,300.87,86,11,0.8,BR,1712875535
406,tsaratanana,-16.7833,47.65,296.73,94,99,0.74,MG,1712875663
407,carbonear,47.7332,-53.2148,276.56,71,0,4.94,CA,1712875663
408,tazacorte,28.629,-17.9293,296.69,46,100,4.63,ES,1712875515
409,kroya,-7.6331,109.2461,298.12,88,100,1.73,ID,1712875664
410,phnom penh,11.5625,104.916,302.1,70,40,2.57,KH,1712875641
411,acarau,-2.8856,-40.12,299.8,86,98,3.42,BR,1712875448
412,katima mulilo,-17.5,24.2667,294.99,59,100,2.12,NA,1712875666
413,coyhaique,-45.5752,-72.0662,287.49,44,0,2.06,CL,1712875477
414,aykhal,66.0,111.5,247.35,99,100,2.6,RU,1712875551
415,borzya,50.3833,116.5167,279.06,75,21,3.57,RU,1712875457
416,gwanda,-20.9333,29.0,289.53,83,94,6.26,ZW,1712875668
417,acajutla,13.5928,-89.8275,303.07,71,92,2.96,SV,1712875669
418,isla vista,34.4133,-119.861,300.56,59,1,1.74,US,1712875669
419,puerto maldonado,-12.6,-69.1833,304.37,70,40,3.6,PE,1712875620
420,peterhead,57.5058,-1.7981,286.37,96,100,7.36,GB,1712875670
421,mungwi,-10.1732,31.3694,290.26,98,100,1.02,ZM,1712875671
422,ta`u,-14.2336,-169.5144,302.13,78,5,4.6,AS,1712875512
423,hammerfest,70.6634,23.6821,274.4,86,100,3.6,NO,1712875672
424,keetmanshoop,-26.5833,18.1333,292.66,30,0,3.6,NA,1712875673
425,watford city,47.8022,-103.2832,286.01,26,0,3.6,US,1712875440
426,fengxiang,47.5833,130.8333,285.35,66,33,3.68,CN,1712875674
427,teykovo,56.858,40.5369,282.07,67,64,3.21,RU,1712875674
428,akureyri,65.6835,-18.0878,275.11,80,75,4.12,IS,1712875480
429,harper,4.375,-7.7169,299.8,84,100,2.85,LR,1712875675
430,yokadouma,3.5167,15.05,294.31,97,97,0.96,CM,1712875676
431,san carlos,9.6612,-68.5827,306.92,29,3,0.79,VE,1712875677
432,kamina,-8.7386,24.9906,292.19,95,98,1.03,CD,1712875677
433,cabo san lucas,22.8909,-109.9124,301.27,40,40,3.6,MX,1712875418
434,san juan,-31.5375,-68.5364,286.46,54,33,4.61,AR,1712875426
435,san antonio de pale,-1.4014,5.6325,300.79,77,100,2.53,GQ,1712875467
436,pandan,14.0453,124.1694,299.51,87,92,3.87,PH,1712875680
437,inirida,3.8653,-67.9239,301.96,71,86,1.64,CO,1712875680
438,dudinka,69.4058,86.1778,243.53,100,85,3.58,RU,1712875489
439,karratha,-20.7377,116.8463,300.43,71,64,1.87,AU,1712875663
440,myitkyina,25.3833,97.4,295.94,38,100,1.09,MM,1712875682
441,kenai,60.5544,-151.2583,275.2,97,100,3.09,US,1712875682
442,kargasok,59.0556,80.8572,259.24,93,15,1.79,RU,1712875683
443,belomorsk,64.5232,34.7668,275.43,82,12,5.09,RU,1712875684
444,suva,-18.1416,178.4415,301.86,84,75,0.0,FJ,1712875632
445,yoloten,37.2989,62.3597,293.56,35,79,4.28,TM,1712875685
446,sittwe,20.15,92.9,298.04,60,0,2.4,MM,1712875686
447,mahajanga,-15.7167,46.3167,300.16,89,20,1.54,MG,1712875686
448,saranac lake,44.3295,-74.1313,286.57,85,93,4.68,US,1712875687
449,bathsheba,13.2167,-59.5167,301.49,74,20,7.2,BB,1712875499
450,angaur state,6.906,134.13,301.22,74,68,5.69,PW,1712875510
451,okhotsk,59.3833,143.3,270.05,91,85,1.99,RU,1712875690
452,sultanah,24.4926,39.5857,298.4,14,0,1.54,SA,1712875690
453,siguiri,11.6667,-9.5,304.98,34,75,0.74,GN,1712875691
454,aitape,-3.1374,142.3475,300.13,88,68,1.29,PG,1712875692
455,page,36.9147,-111.4558,297.03,14,0,2.68,US,1712875693
456,opuwo,-18.0607,13.84,293.97,50,38,0.39,NA,1712875693
457,phan rang-thap cham,11.5667,108.9833,297.78,78,45,1.75,VN,1712875694
458,porto novo,6.4965,2.6036,303.05,78,78,4.67,BJ,1712875695
459,usinsk,65.9939,57.5281,274.86,99,100,10.28,RU,1712875482
460,elko,41.0002,-115.5012,294.35,23,3,3.58,US,1712875696
461,manicore,-5.8092,-61.3003,298.57,97,100,0.38,BR,1712875696
462,bais,9.5911,123.1228,300.14,76,100,2.34,PH,1712875697
463,pader palwo,2.8006,33.135,294.45,77,46,2.2,UG,1712875697
464,kerman,30.2832,57.0788,288.07,51,0,3.09,IR,1712875698
465,mugia,43.1041,-9.2179,288.1,72,100,2.2,ES,1712875699
466,chu,43.5983,73.7614,283.99,67,100,4.58,KZ,1712875558
467,freeport,40.6576,-73.5832,289.14,90,100,8.75,US,1712875701
468,inhambane,-23.865,35.3833,295.21,68,99,5.57,MZ,1712875702
469,caraballeda,10.6112,-66.8522,304.19,89,40,2.06,VE,1712875703
470,kabarnet,0.4919,35.743,288.64,87,82,0.51,KE,1712875704
471,praia da vitoria,38.7333,-27.0667,289.29,94,75,3.14,PT,1712875473
472,gualeguay,-33.1416,-59.3097,287.27,76,70,3.66,AR,1712875705
473,eirunepe,-6.6603,-69.8736,298.61,91,92,0.9,BR,1712875508
474,beledweyne,4.7358,45.2036,302.65,54,99,6.02,SO,1712875706
475,sumoto,34.35,134.9,288.15,83,100,0.45,JP,1712875707
476,mtimbira,-8.7833,36.35,295.86,97,98,1.08,TZ,1712875707
477,midvagur,62.0511,-7.1939,280.61,93,100,5.14,FO,1712875708
478,taulaga,-11.0553,-171.0883,302.66,76,28,4.38,AS,1712875708
479,sandnessjoen,66.0217,12.6316,276.21,81,75,0.51,NO,1712875494
480,pangody,65.85,74.4859,257.72,80,100,11.3,RU,1712875710
481,guntakal junction,15.1667,77.3833,299.49,62,13,5.09,IN,1712875710
482,kavieng,-2.5744,150.7967,300.81,78,99,1.63,PG,1712875711
483,sonoita,31.85,-112.8333,303.53,9,0,4.45,MX,1712875576
484,nikol'sk,53.7189,46.0712,285.14,91,100,2.26,RU,1712875712
485,rongelap,11.1635,166.8941,300.06,79,100,8.8,MH,1712875712
486,alta,69.9689,23.2717,274.74,83,100,5.14,NO,1712875713
487,leopold,-38.1833,144.4667,286.4,90,100,5.66,AU,1712875714
488,mantua,45.1667,10.7833,288.14,88,4,0.45,IT,1712875714
489,corn island,12.1694,-83.0418,300.81,84,49,8.14,NI,1712875715
490,greenville,35.6127,-77.3663,295.24,83,100,10.8,US,1712875715
491,oppdal,62.5943,9.6912,275.65,77,28,6.25,NO,1712875716
492,oudewater,52.025,4.8681,287.17,92,100,0.45,NL,1712875717
493,shizuishan,39.2333,106.7694,286.65,28,3,2.25,CN,1712875718
494,tahoua,14.8888,5.2692,305.66,13,97,2.48,NE,1712875719
495,cestos city,5.46,-9.5828,300.6,84,70,2.73,LR,1712875720
496,luziania,-16.2525,-47.9503,296.98,87,58,0.84,BR,1712875721
497,rawson,-43.3002,-65.1023,287.7,45,100,7.19,AR,1712875721
498,zabol,32.25,67.25,288.9,41,83,1.44,AF,1712875722
499,ar ruseris,11.8659,34.3869,304.21,13,7,4.64,SD,1712875722
500,ellsworth,44.5434,-68.4195,280.53,97,100,4.63,US,1712875723
501,gorontalo,0.5412,123.0595,297.9,84,97,1.32,ID,1712875724
502,pechora,65.1472,57.2244,274.18,98,100,9.83,RU,1712875506
503,kismayo,-0.3582,42.5454,302.09,77,37,3.36,SO,1712875469
504,jaisalmer,26.9147,70.9181,302.93,19,39,0.94,IN,1712875726
505,verkhnevilyuysk,63.4453,120.3167,254.39,92,66,2.41,RU,1712875727
506,port hedland,-20.3167,118.5667,294.18,94,0,1.54,AU,1712875465
507,mecca,21.4267,39.8261,298.25,36,86,2.21,SA,1712875568
508,laojunmiao,39.8333,97.7333,281.13,27,6,1.95,CN,1712875729
509,ust'-uda,54.1742,103.0304,272.69,90,100,1.21,RU,1712875730
510,laayoune,27.1622,-13.2032,298.34,38,0,9.77,EH,1712875730
511,songjianghe,42.1859,127.479,283.08,63,29,3.82,CN,1712875731
512,yeniseysk,58.4497,92.1703,263.49,92,99,2.58,RU,1712875731
513,bori,4.6737,7.362,300.87,82,88,3.81,NG,1712875733
514,melilla,35.2937,-2.9383,290.36,63,0,2.57,ES,1712875506
515,langzhong,31.5504,105.9938,289.38,88,22,1.16,CN,1712875734
516,diu,20.7141,70.9822,296.99,80,11,3.71,IN,1712875735
517,dabwali,29.95,74.7333,297.26,23,64,3.27,IN,1712875735
518,puerto aysen,-45.4,-72.7,279.12,92,0,0.36,CL,1712875437
519,selfoss,63.9331,-20.9971,275.95,98,100,2.9,IS,1712875492
520,serafimovich,49.5786,42.736,289.05,48,62,6.08,RU,1712875737
521,port blair,11.6667,92.75,301.17,89,8,0.51,IN,1712875715
522,boundiali,9.5217,-6.4869,300.14,65,64,0.43,CI,1712875738
523,saldanha,-33.0117,17.9442,290.18,60,7,5.38,ZA,1712875739
524,launceston,-41.45,147.1667,283.95,87,79,2.06,AU,1712875661
525,berlin,52.5244,13.4105,288.14,76,100,2.68,DE,1712875630
526,kongsvinger,60.1905,11.9977,281.52,82,15,2.5,NO,1712875740
527,siwa oasis,29.2041,25.5195,293.03,46,0,4.51,EG,1712875741
528,at taj,24.2049,23.2857,294.01,20,100,4.0,LY,1712875468
529,egilsstadir,65.2653,-14.3948,273.1,100,100,2.57,IS,1712875742
530,banjarmasin,-3.3244,114.591,298.0,93,99,1.28,ID,1712875743
531,wamba,8.9333,8.6,302.43,23,39,1.34,NG,1712875568
532,beidaihehaibin,39.8222,119.5181,285.26,78,3,3.96,CN,1712875744
533,nema,57.5067,50.5011,278.98,87,0,4.4,RU,1712875467
534,gubkin,51.2817,37.5458,291.14,66,100,3.58,RU,1712875694
535,tymovskoye,50.8456,142.655,275.66,81,46,2.51,RU,1712875746
536,kapustin yar,48.5831,45.7372,290.19,61,3,3.18,RU,1712875746
537,tughyl,47.7252,84.2063,275.19,99,100,5.67,KZ,1712875747
538,patong,7.8961,98.2966,298.23,75,28,5.37,TH,1712875748
539,greymouth,-42.4667,171.2,285.35,86,77,5.14,NZ,1712875663
540,el calafate,-50.3408,-72.2768,280.13,63,2,2.21,AR,1712875749
541,san jose de guanipa,8.8872,-64.1651,307.06,30,5,4.38,VE,1712875749
542,walvis bay,-22.9575,14.5053,289.96,82,5,2.83,NA,1712875507
543,revda,56.801,59.9303,281.52,86,100,7.87,RU,1712875750
544,mirny,62.5353,113.9611,250.5,99,98,1.34,RU,1712875751
545,kolonia,50.9333,6.95,287.75,82,100,0.51,DE,1712875512
546,zanjan,36.6736,48.4787,277.71,81,100,3.72,IR,1712875752
547,duong dong,10.2167,103.9667,301.15,78,40,3.09,VN,1712875753
548,rio san juan,19.6439,-70.0763,298.12,83,49,6.36,DO,1712875753
549,pitkyaranta,61.5734,31.4792,277.88,99,100,4.3,RU,1712875754
550,levuka,50.1834,-105.4011,285.0,22,20,3.6,CA,1712875754
